Keyword	formatted_address	geometry	name	place_id	rating	user_ratings_total	Longitude	Latitude
Fort l'Ecluse de Léaz, Léaz, France	Route de Genève, 01200 Léaz, France	{'location': {'lat': 46.1202637, 'lng': 5.8919827}, 'viewport': {'northeast': {'lat': 46.12159182989271, 'lng': 5.893350279892721}, 'southwest': {'lat': 46.11889217010727, 'lng': 5.890650620107277}}}	Fort l'Ecluse	ChIJAUjDteWDjEcR25CRdrHZuGQ	4.4	796	5.8919827	46.1202637
Musée Jean de la Fontaine de Château-Thierry, Château Thierry, France	12 Rue Jean de la Fontaine, 02400 Château-Thierry, France	{'location': {'lat': 49.0467592, 'lng': 3.3999789}, 'viewport': {'northeast': {'lat': 49.04808092989272, 'lng': 3.401432329892722}, 'southwest': {'lat': 49.04538127010728, 'lng': 3.398732670107278}}}	Musée Jean de La Fontaine	ChIJHcw8WSPm6EcR3YOG8p-PuQ0	4.2	257	3.3999789	49.0467592
Musée de la Bresse à Saint Cyr sur Menthon, Saint Cyr sur Menthon, France	987 Chemin des Seiglières, 01380 Saint-Cyr-sur-Menthon, France	{'location': {'lat': 46.2826186, 'lng': 4.984171}, 'viewport': {'northeast': {'lat': 46.28396842989272, 'lng': 4.985520829892721}, 'southwest': {'lat': 46.28126877010727, 'lng': 4.982821170107277}}}	Musée, Domaine des Saveurs - Les Planons	ChIJtSgXL41C80cREnATxsrifnI	4.4	220	4.984171	46.2826186
Musée de la Bresse à Saint Cyr sur Menthon, Saint Cyr sur Menthon, France	A40 - Sens Bellegarde - Mâcon, 01380 Saint-Cyr-sur-Menthon, France	{'location': {'lat': 46.28033749999999, 'lng': 4.983784399999999}, 'viewport': {'northeast': {'lat': 46.28173237989272, 'lng': 4.985117979892721}, 'southwest': {'lat': 46.27903272010728, 'lng': 4.982418320107278}}}	APRR - A40 - Aire du Musée de la Bresse	ChIJC94O1-xC80cRHHrIJjJKHJw	3.7	64	4.983784399999999	46.28033749999999
Musée Saint Léger de Soissons, Soissons, France	2 Rue de la Congrégation, 02200 Soissons, France	{'location': {'lat': 49.38437039999999, 'lng': 3.327236}, 'viewport': {'northeast': {'lat': 49.38571822989272, 'lng': 3.328530829892722}, 'southwest': {'lat': 49.38301857010728, 'lng': 3.325831170107278}}}	Musée d'art et d'histoire Saint-Léger - Musées de Soissons	ChIJba_CxbBe6EcRK1BBr_zXtbQ	4.4	92	3.327236	49.38437039999999
Musée Saint Léger de Soissons, Soissons, France	11 Rue Saint-Jean, 02200 Soissons, France	{'location': {'lat': 49.3761099, 'lng': 3.3250118}, 'viewport': {'northeast': {'lat': 49.37770342989273, 'lng': 3.326008879892723}, 'southwest': {'lat': 49.37500377010728, 'lng': 3.323309220107278}}}	Arsenal Saint-Jean - Musées de Soissons	ChIJlxg2fche6EcRAWJyAepS7vE	4.6	27	3.3250118	49.3761099
Château de Voltaire à Ferney, Ferney-Voltaire, France	Allée du Château, 01210 Ferney-Voltaire, France	{'location': {'lat': 46.2574406, 'lng': 6.1036109}, 'viewport': {'northeast': {'lat': 46.25922192989272, 'lng': 6.104816379892722}, 'southwest': {'lat': 46.25652227010728, 'lng': 6.102116720107278}}}	Château de Voltaire	ChIJgRRBtfRjjEcRyXfUyeTpcR0	4.3	587	6.1036109	46.2574406
Aigles de Château-Thierry, Château Thierry, France	Cours Renan, 02400 Château-Thierry, France	{'location': {'lat': 49.0479461, 'lng': 3.4061096}, 'viewport': {'northeast': {'lat': 49.04930387989272, 'lng': 3.407412829892722}, 'southwest': {'lat': 49.04660422010728, 'lng': 3.404713170107278}}}	Aigles de Château-Thierry	ChIJrSUhPzzm6EcRX4Gvbqk5_0c	4.2	476	3.4061096	49.0479461
Aigles de Château-Thierry, Château Thierry, France	16 Place de l'Hôtel de ville, 02400 Château-Thierry, France	{'location': {'lat': 49.0470491, 'lng': 3.4021843}, 'viewport': {'northeast': {'lat': 49.04827337989271, 'lng': 3.403861979892722}, 'southwest': {'lat': 49.04557372010727, 'lng': 3.401162320107278}}}	Château de Château Thierry	ChIJp-1Mk4Lo6EcRKhKRaQYgcHg	4.4	246	3.4021843	49.0470491
Cascades de Trévoux, Trévoux, France	1 Allée des Cascades, 01600 Trévoux, France	{'location': {'lat': 45.93862, 'lng': 4.764258}, 'viewport': {'northeast': {'lat': 45.93961187989272, 'lng': 4.765843179892721}, 'southwest': {'lat': 45.93691222010727, 'lng': 4.763143520107278}}}	Base de loisirs Les Cascades	ChIJY2Kw8GeQ9EcRvfUWAJkCpB4	3.6	724	4.764258	45.93862
Souterrains de la citadelle de Laon, Laon, France	Place du Parvis Gaultier de Mortagne, 02000 Laon, France	{'location': {'lat': 49.564236, 'lng': 3.6239607}, 'viewport': {'northeast': {'lat': 49.56559472989272, 'lng': 3.625208229892722}, 'southwest': {'lat': 49.56289507010728, 'lng': 3.622508570107278}}}	Office de Tourisme du Pays de Laon	ChIJqW4xn0RL6EcRVmgmk9ExXlw	4.3	143	3.6239607	49.564236
Souterrains de la citadelle de Laon, Laon, France	Allée Jean Martinot &, Prom. de la Citadelle, 02000 Laon, France	{'location': {'lat': 49.563538, 'lng': 3.629837}, 'viewport': {'northeast': {'lat': 49.56487532989272, 'lng': 3.631230879892722}, 'southwest': {'lat': 49.56217567010728, 'lng': 3.628531220107278}}}	Souterrains de Laon, secrets sous la ville	ChIJnQ9ODNpL6EcR5xrB8jm8dLc	4.4	5	3.629837	49.563538
Parc des oiseaux de Villars les Dombes, Villars les Dombes, France	D1083, 01330 Villars-les-Dombes, France	{'location': {'lat': 45.99175899999999, 'lng': 5.0259662}, 'viewport': {'northeast': {'lat': 45.99315797989273, 'lng': 5.027291729892722}, 'southwest': {'lat': 45.99045832010728, 'lng': 5.024592070107278}}}	Parc des Oiseaux	ChIJ8YIHsEmk9EcRGkPEM24h8l0	4.5	4241	5.0259662	45.99175899999999
Centre national du costume de scène de Moulins, Moulins, France	Quartier Villars, Route de Montilly, 03000 Moulins, France	{'location': {'lat': 46.561356, 'lng': 3.318633}, 'viewport': {'northeast': {'lat': 46.56270582989271, 'lng': 3.319982829892721}, 'southwest': {'lat': 46.56000617010727, 'lng': 3.317283170107276}}}	Centre national du costume de scène	ChIJW92AM8sd8UcRWKWhcs4h7gs	4.5	1604	3.318633	46.561356
Musée Traditions et Vie Apoticairerie, Châtillon sur Chalaronne, France	15 Place Saint-Vincent de Paul, 01400 Châtillon-sur-Chalaronne, France	{'location': {'lat': 46.1185757, 'lng': 4.9549869}, 'viewport': {'northeast': {'lat': 46.11994282989272, 'lng': 4.956361179892722}, 'southwest': {'lat': 46.11724317010727, 'lng': 4.953661520107278}}}	Hospice de Châtillon-sur-Chalaronne	ChIJPzlZ0epf80cRdtHJjLtBda0	4.2	40	4.9549869	46.1185757
La plaine tonique à Montrevel-en-Bresse, Montrevel en Bresse, France	599 Route d'Etrez, 01340 Malafretaz, France	{'location': {'lat': 46.338823, 'lng': 5.136574}, 'viewport': {'northeast': {'lat': 46.34016472989272, 'lng': 5.13797037989272}, 'southwest': {'lat': 46.33746507010728, 'lng': 5.135270720107276}}}	Camping et Base de loisirs La Plaine Tonique	ChIJt7cychNG80cRu-LmcgE03xw	4	419	5.136574	46.338823
La plaine tonique à Montrevel-en-Bresse, Montrevel en Bresse, France	La Plaine Tonique, 01340 Malafretaz, France	{'location': {'lat': 46.3412879, 'lng': 5.138275999999999}, 'viewport': {'northeast': {'lat': 46.344278, 'lng': 5.140314829892722}, 'southwest': {'lat': 46.3402748, 'lng': 5.137615170107278}}}	La Plaine Tonique	ChIJqcSjXBhG80cR-8O2FyY4aOU	4	91	5.138275999999999	46.3412879
MuPop à Montluçon, Montluçon, France	3 Rue Notre Dame, 03100 Montluçon, France	{'location': {'lat': 46.3409248, 'lng': 2.6054845}, 'viewport': {'northeast': {'lat': 46.34224082989272, 'lng': 2.606912479892722}, 'southwest': {'lat': 46.33954117010727, 'lng': 2.604212820107278}}}	Musée des Musiques Populaires	ChIJW1Rc_Nyn8EcRYV-nYplnAR4	4.6	427	2.6054845	46.3409248
MuPop à Montluçon, Montluçon, France	Passage du Darot, 03100 Montluçon, France	{'location': {'lat': 46.3390545, 'lng': 2.6036686}, 'viewport': {'northeast': {'lat': 46.34037332989271, 'lng': 2.604957379892723}, 'southwest': {'lat': 46.33767367010727, 'lng': 2.602257720107278}}}	J4 - MuPOP	ChIJlfFitt2n8EcRQcU_FIm745Y	0.0	0	2.6036686	46.3390545
CERN de Saint Genis Pouilly, Saint Genis Pouilly, France	01630 Saint-Genis-Pouilly, France	{'location': {'lat': 46.2372661, 'lng': 6.0389781}, 'viewport': {'northeast': {'lat': 46.23842512989272, 'lng': 6.040247429892721}, 'southwest': {'lat': 46.23572547010728, 'lng': 6.037547770107278}}}	CERN Bâtiment 180	ChIJnQRjhvRijEcRU828jSEGI_c	4.6	33	6.0389781	46.2372661
Caverne du dragon de Oulches la Vallée Foulon, Oulches la Vallée Foulon, France	Chemin des Dames, 02160 Oulches-la-Vallée-Foulon, France	{'location': {'lat': 49.4414288, 'lng': 3.7324339}, 'viewport': {'northeast': {'lat': 49.44270657989272, 'lng': 3.733650479892722}, 'southwest': {'lat': 49.44000692010728, 'lng': 3.730950820107278}}}	Caverne du Dragon - Centre d'Accueil du Visiteur	ChIJW0MMDm6u6UcRWOESaFmjBnk	4.5	891	3.7324339	49.4414288
Caverne du dragon de Oulches la Vallée Foulon, Oulches la Vallée Foulon, France	Grotte du Dragon, 02860 Oulches-la-Vallée-Foulon, France	{'location': {'lat': 49.441603, 'lng': 3.73126}, 'viewport': {'northeast': {'lat': 49.4488576, 'lng': 3.7472674}, 'southwest': {'lat': 49.4343473, 'lng': 3.7152526}}}	Grotte du Dragon	ChIJ2a3O43Gu6UcRy2Zzg90UXnI	5.0	1	3.73126	49.441603
Parc Aqua Mundo-Center Parcs Aisne à Chamouille, Chamouille, France	1 Parc Nautique de L'Ailette, 02860 Chamouille, France	{'location': {'lat': 49.4646825, 'lng': 3.6808689}, 'viewport': {'northeast': {'lat': 49.46600317989272, 'lng': 3.682011879892721}, 'southwest': {'lat': 49.46330352010727, 'lng': 3.679312220107278}}}	Parc aquatique Aqua Mundo Center Parcs Le Lac d'Ailette	ChIJC0W006RP6EcR8JZxxzsaOag	4.1	303	3.6808689	49.4646825
Musée des papillons de Saint Quentin, Saint Quentin, France	14 Rue de la Sellerie, 02100 Saint-Quentin, France	{'location': {'lat': 49.8459415, 'lng': 3.2887558}, 'viewport': {'northeast': {'lat': 49.84732127989272, 'lng': 3.290164229892722}, 'southwest': {'lat': 49.84462162010728, 'lng': 3.287464570107277}}}	Musée Des Papillons	ChIJz2KoT3wY6EcRbBtj_Q1Cqy8	4.5	169	3.2887558	49.8459415
Base de loisirs Axoplage à Monampteuil, Monampteuil, France	5 Le Moulinet, 02000 Monampteuil, France	{'location': {'lat': 49.4703337, 'lng': 3.5542942}, 'viewport': {'northeast': {'lat': 49.47166747989273, 'lng': 3.555544579892723}, 'southwest': {'lat': 49.46896782010729, 'lng': 3.552844920107278}}}	Camping du Lac	ChIJxcnYuQtS6EcRy-y2kwzClNQ	4.1	84	3.5542942	49.4703337
Poste de douanes de Courquain, Hirson, France	Pl. De Courquain, 02500 Hirson, France	{'location': {'lat': 49.97613399999999, 'lng': 4.1737094}, 'viewport': {'northeast': {'lat': 49.97744472989272, 'lng': 4.174971479892721}, 'southwest': {'lat': 49.97474507010728, 'lng': 4.172271820107277}}}	Escape Game Courquain	ChIJ5Zyu9XULwkcRDpH_yjMSCHg	5	4	4.1737094	49.97613399999999
Fort de Condé à Chivres Val, Chivres Val, France	3 Rue du Capitaine Pestel, 02880 Chivres-Val, France	{'location': {'lat': 49.3950301, 'lng': 3.4366814}, 'viewport': {'northeast': {'lat': 49.39637992989273, 'lng': 3.438031229892723}, 'southwest': {'lat': 49.39368027010729, 'lng': 3.435331570107278}}}	Fort de Condé	ChIJ2xmFabZQ6EcRWllYyhAsHIo	4.4	374	3.4366814	49.3950301
Parc nautique de la Frette à Tergnier, Tergnier, France	Rue de la Prairie, 02700 Fargniers, France	{'location': {'lat': 49.64862549999999, 'lng': 3.3120729}, 'viewport': {'northeast': {'lat': 49.64988432989273, 'lng': 3.313541279892722}, 'southwest': {'lat': 49.64718467010728, 'lng': 3.310841620107277}}}	La Frette - La base de loisirs	ChIJu2VrA4Q_6EcR3hxKLAJPFBs	4.2	750	3.3120729	49.64862549999999
Musée du train miniature de Châtillon sur Chalaronne, Châtillon sur Chalaronne, France	96 Place des Halles, 01400 Châtillon-sur-Chalaronne, France	{'location': {'lat': 46.11841099999999, 'lng': 4.957206999999999}, 'viewport': {'northeast': {'lat': 46.11983452989272, 'lng': 4.958577529892722}, 'southwest': {'lat': 46.11713487010727, 'lng': 4.955877870107278}}}	Musée du Train Miniature de Châtillon sur Chalaronne	ChIJtVwxAZVf80cRoMM6w__DZYc	4.5	364	4.957206999999999	46.11841099999999
Musée des temps barbares à Marle, Marle, France	7 Rue des Moulins, 02250 Marle, France	{'location': {'lat': 49.7417269, 'lng': 3.7713904}, 'viewport': {'northeast': {'lat': 49.74303927989272, 'lng': 3.772758429892721}, 'southwest': {'lat': 49.74033962010728, 'lng': 3.770058770107278}}}	Musée des Temps Barbares	ChIJa2vuB5DO6UcRk34zN5pQWzs	4.2	87	3.7713904	49.7417269
Musée du Revermont à Treffort Cuisiat, Treffort Cuisiat, France	40 Rue Principale, 01370 Val-Revermont, France	{'location': {'lat': 46.29417610000001, 'lng': 5.380683299999999}, 'viewport': {'northeast': {'lat': 46.29552592989272, 'lng': 5.38203312989272}, 'southwest': {'lat': 46.29282627010728, 'lng': 5.379333470107277}}}	Musée du Revermont	ChIJH1xhie6zjEcRctf22Nxe2lQ	4.3	133	5.380683299999999	46.29417610000001
Mémorial des enfants d'Izieu, Izieu, France	70 Route de Lambraz, 01300 Izieu, France	{'location': {'lat': 45.6490314, 'lng': 5.6323662}, 'viewport': {'northeast': {'lat': 45.65031147989272, 'lng': 5.633750879892721}, 'southwest': {'lat': 45.64761182010727, 'lng': 5.631051220107278}}}	Maison d'Izieu	ChIJNxRR_NQQi0cR4aLfMsPAjwA	4.6	639	5.6323662	45.6490314
Musée des soieries Bonnet à Jujurieux, Jujurieux, France	19 bis Rue Claude Joseph Bonnet, 01640 Jujurieux, France	{'location': {'lat': 46.0421545, 'lng': 5.4102583}, 'viewport': {'northeast': {'lat': 46.04362202989272, 'lng': 5.412007879892722}, 'southwest': {'lat': 46.04092237010728, 'lng': 5.409308220107278}}}	Musée des Soieries Bonnet	ChIJ-wTjdAdXi0cR_1IZ-dxaWS0	4.5	180	5.4102583	46.0421545
Musée de la coopération franco-américaine, Blérancourt, France	33 Place du Général Leclerc, 02300 Blérancourt, France	{'location': {'lat': 49.5177282, 'lng': 3.1537843}, 'viewport': {'northeast': {'lat': 49.51910997989272, 'lng': 3.155112729892722}, 'southwest': {'lat': 49.51641032010728, 'lng': 3.152413070107277}}}	Château de Blérancourt Musée franco-américain	ChIJT2BUaVJo6EcRCJKF_wKjt84	4.4	234	3.1537843	49.5177282
Familistère de Guise, Guise, France	Cité Familistere, 02120 Guise, France	{'location': {'lat': 49.904727, 'lng': 3.625237}, 'viewport': {'northeast': {'lat': 49.90588002989272, 'lng': 3.626930379892722}, 'southwest': {'lat': 49.90318037010728, 'lng': 3.624230720107279}}}	Le Familistère de Guise	ChIJyXtZOPPU6UcR5Wwsya0eDbw	4.5	1714	3.625237	49.904727
Musée départemental d'histoire de la résistance et de la déportation de l'Ain et du Haut-Jura à Nantua, Nantua, France	3 Montée de l'Abbaye, 01130 Nantua, France	{'location': {'lat': 46.152401, 'lng': 5.6082736}, 'viewport': {'northeast': {'lat': 46.15373662989272, 'lng': 5.609623429892722}, 'southwest': {'lat': 46.15103697010728, 'lng': 5.606923770107278}}}	Musée de la Résistance et de la Déportation de l'Ain	ChIJBw2YECaijEcR_Spc0gAplMs	4.6	147	5.6082736	46.152401
Village des métiers d'antan à Saint Quentin, Saint Quentin, France	5 Rue de la Fère, 02100 Saint-Quentin, France	{'location': {'lat': 49.8343114, 'lng': 3.30689}, 'viewport': {'northeast': {'lat': 49.83563842989272, 'lng': 3.308084279892722}, 'southwest': {'lat': 49.83293877010727, 'lng': 3.305384620107278}}}	Village des Métiers d'Antan & Musée Motobécane	ChIJd7TmEpoi6EcRWHH1mStEnuM	4.6	484	3.30689	49.8343114
Citadelle d'Entrevaux, Entrevaux, France	Porte Royale du Pont Levis, 04320 Entrevaux, France	{'location': {'lat': 43.9524505, 'lng': 6.8136205}, 'viewport': {'northeast': {'lat': 43.95380032989272, 'lng': 6.814970329892721}, 'southwest': {'lat': 43.95110067010727, 'lng': 6.812270670107277}}}	Citadelle d'Entrevaux	ChIJrXVFh2pBzBIR9PZwWDb2-ZE	4.5	275	6.8136205	43.9524505
Musée Anne de Beaujeu + Maison Mantin + Mal Coiffée à Moulins , Moulins, France	Rue du Vieux Château, 03000 Moulins, France	{'location': {'lat': 46.567254, 'lng': 3.3303393}, 'viewport': {'northeast': {'lat': 46.56867952989271, 'lng': 3.331867429892722}, 'southwest': {'lat': 46.56597987010727, 'lng': 3.329167770107277}}}	Musée Anne-De-Beaujeu & Maison Mantin	ChIJx3S3JkYc8UcRCQN7ppEz9Rg	0	0	3.3303393	46.567254
Musée de l'Illustration Jeunesse à Moulins , Moulins, France	26 Rue Voltaire, 03000 Moulins, France	{'location': {'lat': 46.5666901, 'lng': 3.3333506}, 'viewport': {'northeast': {'lat': 46.56804757989272, 'lng': 3.334717929892722}, 'southwest': {'lat': 46.56534792010728, 'lng': 3.332018270107278}}}	Musée de l'illustration jeunesse MIJ	ChIJjfpp_EYc8UcRuEQmw9dWodY	4.5	148	3.3333506	46.5666901
Musée Alexandra David Neel de Digne-les-Bains, Digne les Bains, France	27 Avenue du Maréchal Juin, 04000 Digne-les-Bains, France	{'location': {'lat': 44.0815787, 'lng': 6.2241135}, 'viewport': {'northeast': {'lat': 44.08305842989272, 'lng': 6.225309529892721}, 'southwest': {'lat': 44.08035877010727, 'lng': 6.222609870107277}}}	Maison Alexandra David-Neel	ChIJISy88aaayxIR4jbVh6tMyrU	4.5	224	6.2241135	44.0815787
Musée-promenade de Digne les Bains, Digne les Bains, France	BP 30156, Montée du Parc Saint-Benoît, 04990 Digne-les-Bains, France	{'location': {'lat': 44.1097414, 'lng': 6.2280975}, 'viewport': {'northeast': {'lat': 44.11113862989271, 'lng': 6.22952452989272}, 'southwest': {'lat': 44.10843897010727, 'lng': 6.226824870107277}}}	UNESCO Géoparc de Haute-Provence - Musée Promenade	ChIJN5ASadqEyxIRnTADrmVjtK8	4.2	340	6.2280975	44.1097414
Parc d'attractions Le Pal de Saint Pourçain sur Besbre, Saint Pourçain sur Besbre, France	Saint-Pourçain-sur-Besbre, 03290 Dompierre-sur-Besbre, France	{'location': {'lat': 46.509026, 'lng': 3.625388}, 'viewport': {'northeast': {'lat': 46.51102115, 'lng': 3.626930250000002}, 'southwest': {'lat': 46.50640775000001, 'lng': 3.620761249999998}}}	Le PAL	ChIJRy_iLyNr8UcRGeGyzpTNzcA	4.6	14491	3.625388	46.509026
Musée ethnologique de Haute-Provence de Mane, Mane, France	Le Prieuré, 04300 Mane, France	{'location': {'lat': 43.934307, 'lng': 5.760808}, 'viewport': {'northeast': {'lat': 43.93568912989272, 'lng': 5.762212179892723}, 'southwest': {'lat': 43.93298947010728, 'lng': 5.759512520107279}}}	Salagon, musée et jardins	ChIJi6q-YZLKyxIR6iVIh5L_5Qs	4.3	479	5.760808	43.934307
Observatoire de Haute-Provence à Saint Michel l'Observatoire, Saint Michel l'Observatoire, France	04870 Saint-Michel-l'Observatoire, France	{'location': {'lat': 43.9345695, 'lng': 5.710543299999999}, 'viewport': {'northeast': {'lat': 43.93592447989272, 'lng': 5.711919579892721}, 'southwest': {'lat': 43.93322482010728, 'lng': 5.709219920107278}}}	Observatoire de Haute Provence [CNRS]	ChIJ5w_1sD41yhIR1Qjx0xFeBJw	4.2	33	5.710543299999999	43.9345695
Centre d'astronomie de Saint-Michel-l'Observatoire, Saint Michel l'Observatoire, France	Plateau du Moulin à Vent, 04870 Saint-Michel-l'Observatoire, France	{'location': {'lat': 43.906352, 'lng': 5.727353}, 'viewport': {'northeast': {'lat': 43.90758717989272, 'lng': 5.728605129892721}, 'southwest': {'lat': 43.90488752010727, 'lng': 5.725905470107278}}}	Centre d'Astronomie Saint-Michel L'Observatoire	ChIJg8M0Vdo0yhIR5p5rSa-39ac	4.5	125	5.727353	43.906352
Musée du Pays de Souvigny, Souvigny, France	Place Aristide Briand, 03210 Souvigny, France	{'location': {'lat': 46.5341797, 'lng': 3.1933324}, 'viewport': {'northeast': {'lat': 46.53552952989272, 'lng': 3.194682229892722}, 'southwest': {'lat': 46.53282987010727, 'lng': 3.191982570107277}}}	Musée et jardins de Souvigny	ChIJo_tyj0vh8EcR11ED4_2iC0U	4.2	92	3.1933324	46.5341797
Cairn Centre D'Art à Digne-les-Bains, Digne les Bains, France	10 montée Bernard Dellacasagrande, 04005, Digne-les-Bains, France	{'location': {'lat': 44.10963599999999, 'lng': 6.228358999999999}, 'viewport': {'northeast': {'lat': 44.11097867989271, 'lng': 6.229692429892721}, 'southwest': {'lat': 44.10827902010727, 'lng': 6.226992770107278}}}	CAIRN centre d'art	ChIJbRbb8tCayxIRMqkl7GP7QZU	3.5	2	6.228358999999999	44.10963599999999
Citadelle de Sisteron, Sisteron, France	Montée de la Citadelle, 04200 Sisteron, France	{'location': {'lat': 44.1985397, 'lng': 5.9434852}, 'viewport': {'northeast': {'lat': 44.19987362989272, 'lng': 5.944647429892723}, 'southwest': {'lat': 44.19717397010728, 'lng': 5.941947770107279}}}	Citadelle de Sisteron	ChIJk4v9vfmmyxIRKWmpUFhqOJM	4.5	3863	5.9434852	44.1985397
Paléopolis à Gannat, Gannat, France	Site de Chazoux, Route de Bègues, 03800 Gannat, France	{'location': {'lat': 46.114357, 'lng': 3.166444}, 'viewport': {'northeast': {'lat': 46.11568177989272, 'lng': 3.167908829892723}, 'southwest': {'lat': 46.11298212010727, 'lng': 3.165209170107278}}}	PALEOPOLIS	ChIJwcvbQ7wr90cRmkMAJ-zS0-A	4.2	992	3.166444	46.114357
Musée de préhistoire des Gorges du Verdon à Quinson, Quinson, France	Route de Montmeyan, 04500 Quinson, France	{'location': {'lat': 43.699828, 'lng': 6.0369807}, 'viewport': {'northeast': {'lat': 43.70104487989272, 'lng': 6.038681579892722}, 'southwest': {'lat': 43.69834522010728, 'lng': 6.035981920107278}}}	Musée de Préhistoire des Gorges du Verdon	ChIJ95QrQnDeyxIRaVxwl2Lu4zM	4	1352	6.0369807	43.699828
Musée Gassendi à Digne-les-Bains, Digne les Bains, France	64 Boulevard Gassendi, 04000 Digne-les-Bains, France	{'location': {'lat': 44.0938315, 'lng': 6.2382252}, 'viewport': {'northeast': {'lat': 44.09523152989273, 'lng': 6.239550329892722}, 'southwest': {'lat': 44.09253187010729, 'lng': 6.236850670107279}}}	Musée Gassendi	ChIJEafAL0uFyxIRz7Ltn6iwxgw	4.1	94	6.2382252	44.0938315
Parcours des fées, Crévoux, France	Unnamed Road, 05200 Crévoux, France	{'location': {'lat': 44.54282629999999, 'lng': 6.6370213}, 'viewport': {'northeast': {'lat': 44.54416277989272, 'lng': 6.638368279892722}, 'southwest': {'lat': 44.54146312010728, 'lng': 6.635668620107277}}}	Parcours des fées	ChIJTwmo9DG9zBIRkKA6nQ05hTU	4.9	9	6.6370213	44.54282629999999
Château de Queyras et crypte à Château Ville Vieille, Château Ville Vieille, France	Fort Queyras, 05350 Château-Ville-Vieille, France	{'location': {'lat': 44.7555937, 'lng': 6.7895546}, 'viewport': {'northeast': {'lat': 44.75737397989273, 'lng': 6.790729779892722}, 'southwest': {'lat': 44.75467432010728, 'lng': 6.788030120107278}}}	Fort Queyras	ChIJy_8vdFPKzBIRJIxRtFpHKlw	4.2	569	6.7895546	44.7555937
Place Forte de Mont-Dauphin, Mont Dauphin, France	Place Vauban, 05600 Mont-Dauphin, France	{'location': {'lat': 44.670567, 'lng': 6.62472}, 'viewport': {'northeast': {'lat': 44.67192452989273, 'lng': 6.626026879892723}, 'southwest': {'lat': 44.66922487010728, 'lng': 6.623327220107279}}}	Place forte de Mont-Dauphin	ChIJSah95YiwzBIRrWpAdvLdzQY	4.5	1347	6.62472	44.670567
Musée de la faïence de Moustiers Sainte Marie, Moustiers Sainte Marie, France	Rue du Seigneur de la Clue, 04360 Moustiers-Sainte-Marie, France	{'location': {'lat': 43.8459089, 'lng': 6.221445999999999}, 'viewport': {'northeast': {'lat': 43.84725962989271, 'lng': 6.222771829892721}, 'southwest': {'lat': 43.84455997010727, 'lng': 6.220072170107278}}}	Musée de la Faïence	ChIJ_____z_uyxIRtAdGXZ_ZdKw	4.5	84	6.221445999999999	43.8459089
Maison du parc national des Ecrins et maison du Ski de Briançon, Briançon, France	Place Médecin Général Blanchard, 05100 Briançon, France	{'location': {'lat': 44.8981302, 'lng': 6.6429991}, 'viewport': {'northeast': {'lat': 44.89949352989272, 'lng': 6.644336929892721}, 'southwest': {'lat': 44.89679387010727, 'lng': 6.641637270107277}}}	Maison du Parc du Briançonnais	ChIJCdl4IGX-iUcRhVQa0RW0bLM	3.8	4	6.6429991	44.8981302
Muséoscope de la Viste du Rousset, Rousset, France	Belvédère du barrage de Serre-Ponçon, 05190 Rousset, France	{'location': {'lat': 44.4755668, 'lng': 6.2698426}, 'viewport': {'northeast': {'lat': 44.47691662989272, 'lng': 6.271192429892722}, 'southwest': {'lat': 44.47421697010727, 'lng': 6.268492770107279}}}	Muséoscope du Lac	ChIJ_ep_PkNmyxIRp0kN2KEEekA	4.5	694	6.2698426	44.4755668
Muséoscope de la Viste du Rousset, Rousset, France	Belvédère de Serre-Ponçon, 05190 Rousset, France	{'location': {'lat': 44.47646899999999, 'lng': 6.26856}, 'viewport': {'northeast': {'lat': 44.47781537989272, 'lng': 6.269885729892722}, 'southwest': {'lat': 44.47511572010728, 'lng': 6.267186070107278}}}	Camping La Viste	ChIJqXilVCNmyxIRzml580HxvuQ	4.5	261	6.26856	44.47646899999999
Musée départemental de Gap, Gap, France	6 Avenue Maréchal Foch, 05000 Gap, France	{'location': {'lat': 44.5622548, 'lng': 6.0857623}, 'viewport': {'northeast': {'lat': 44.56378912989273, 'lng': 6.086965929892722}, 'southwest': {'lat': 44.56108947010728, 'lng': 6.084266270107278}}}	Musée Muséum départemental	ChIJL5-oZWlAyxIRH71N7JwRhak	4.1	154	6.0857623	44.5622548
Parc national des Ecrins : maisons du parc à Vallouise, Vallouise, France	Les Ribes, 05290 Vallouise, France	{'location': {'lat': 44.8393017, 'lng': 6.4932703}, 'viewport': {'northeast': {'lat': 44.84071192989272, 'lng': 6.494529979892723}, 'southwest': {'lat': 44.83801227010728, 'lng': 6.491830320107279}}}	Maison du Parc des Ecrins	ChIJhUPXqnb-iUcRrDux3Ua2S_A	4.7	137	6.4932703	44.8393017
Musée la Vallée de Barcelonnette, Barcelonnette, France	10 Avenue de la Libération, 04400 Barcelonnette, France	{'location': {'lat': 44.3873976, 'lng': 6.655319}, 'viewport': {'northeast': {'lat': 44.38889587989271, 'lng': 6.656639229892721}, 'southwest': {'lat': 44.38619622010727, 'lng': 6.653939570107277}}}	Musée de la Vallée	ChIJ6a9394SRzBIRelMmL33RnMM	4.3	283	6.655319	44.3873976
Prapic : accueil temporaire du PNE à Orcières, Orcières, France	Rue des Ecrins, 05170 Orcières, France	{'location': {'lat': 44.6974064, 'lng': 6.3232303}, 'viewport': {'northeast': {'lat': 44.69866362989273, 'lng': 6.324561779892721}, 'southwest': {'lat': 44.69596397010729, 'lng': 6.321862120107277}}}	Station de ski de Orcières-Merlette	ChIJl3xT8tVWyxIRVFHQy1DZGe8	4.4	3365	6.3232303	44.6974064
Centre international d'art contemporain de Carros, Carros, France	06510 Carros, France	{'location': {'lat': 43.7925043, 'lng': 7.186900999999999}, 'viewport': {'northeast': {'lat': 43.79385412989272, 'lng': 7.188250829892721}, 'southwest': {'lat': 43.79115447010728, 'lng': 7.185551170107277}}}	Centre international d'art contemporain	ChIJKeIN4qzOzRIRiJQjaEsaGKU	4.6	41	7.186900999999999	43.7925043
Aquavallée à Isola, Isola, France	1 Chemin de Longon, 06420 Isola, France	{'location': {'lat': 44.1855401, 'lng': 7.052617}, 'viewport': {'northeast': {'lat': 44.18686932989272, 'lng': 7.054137679892722}, 'southwest': {'lat': 44.18416967010728, 'lng': 7.051438020107278}}}	AQUAVallée Isola	ChIJjykq5JcAzRIRkkGmxi1LpJI	4	156	7.052617	44.1855401
Maison de l'eau et des énergies et Barrage de Serre-Ponçon à Rousset, Rousset, France	05190 Rousset, France	{'location': {'lat': 44.4678455, 'lng': 6.2666213}, 'viewport': {'northeast': {'lat': 44.46915337989272, 'lng': 6.267395999999999}, 'southwest': {'lat': 44.46645372010727, 'lng': 6.264297200000001}}}	Maison de l'Eau et des Énergies	ChIJIRL70m5myxIRf5bGpGa4fIs	4.3	153	6.2666213	44.4678455
Parc national des Ecrins : maison de la vallée à Saint Jean Saint Nicolas, Saint Jean Saint Nicolas, France	Les Ricous, 05260 Saint-Jean-Saint-Nicolas, France	{'location': {'lat': 44.677648, 'lng': 6.262146}, 'viewport': {'northeast': {'lat': 44.67903677989273, 'lng': 6.263455629892722}, 'southwest': {'lat': 44.67633712010728, 'lng': 6.260755970107278}}}	Gîte L'Ecrin des Hautes-Alpes	ChIJwSmrSJ5ayxIRoCqL5oC-cx4	4.6	11	6.262146	44.677648
Ecoparc de Mougins, Mougins, France	772 Chemin de Font de Currault, 06250 Mougins, France	{'location': {'lat': 43.5904998, 'lng': 7.032845}, 'viewport': {'northeast': {'lat': 43.59168732989271, 'lng': 7.033825279892722}, 'southwest': {'lat': 43.58898767010727, 'lng': 7.031125620107278}}}	Eco'parc Mougins	ChIJ1_EeUBcqzBIR1OhDUAjlCDg	3.9	481	7.032845	43.5904998
Château-musée d'entomologie de Tourrette Levens, Tourrette Levens, France	277 Montée du Château, 06690 Tourrette-Levens, France	{'location': {'lat': 43.7835961, 'lng': 7.276503300000001}, 'viewport': {'northeast': {'lat': 43.78498387989272, 'lng': 7.277846229892721}, 'southwest': {'lat': 43.78228422010728, 'lng': 7.275146570107277}}}	Château de Tourrette Levens	ChIJg-CTNP3FzRIRxZvjZxKhjdQ	4.6	214	7.276503300000001	43.7835961
Château-musée d'entomologie de Tourrette Levens, Tourrette Levens, France	171 Montée du Château, 06690 Tourrette-Levens, France	{'location': {'lat': 43.7847438, 'lng': 7.2762989}, 'viewport': {'northeast': {'lat': 43.78646587989272, 'lng': 7.277641029892721}, 'southwest': {'lat': 43.78376622010727, 'lng': 7.274941370107277}}}	Musée des Métiers Traditionnels de Tourrette-Levens	ChIJlzZMSuPFzRIRlm0HgjtGtGQ	0.0	0	7.2762989	43.7847438
Espace Jean Marais à Vallauris, Vallauris, France	Espace Jean Marais, 06220 Vallauris, France	{'location': {'lat': 43.5735836, 'lng': 7.0564364}, 'viewport': {'northeast': {'lat': 43.57493342989272, 'lng': 7.057786229892721}, 'southwest': {'lat': 43.57223377010728, 'lng': 7.055086570107277}}}	Espace Jean Marais	ChIJi3iQDIIqzBIR1ly3E77yb0M	7.0564364	43.5735836
Fort carré d'Antibes, Antibes, France	Avenue du 11 Novembre, 06600 Antibes, France	{'location': {'lat': 43.5903278, 'lng': 7.1272506}, 'viewport': {'northeast': {'lat': 43.59167762989271, 'lng': 7.128600429892722}, 'southwest': {'lat': 43.58897797010727, 'lng': 7.125900770107278}}}	Le Fort Carré	ChIJk_6aqw3VzRIR0xFTHJghP18	4.4	1905	7.1272506	43.5903278
Galerie de la marine de Nice, Nice, France	6 Avenue Jean Médecin, 06000 Nice, France	{'location': {'lat': 43.6986008, 'lng': 7.269596999999999}, 'viewport': {'northeast': {'lat': 43.70001067989272, 'lng': 7.27075322989272}, 'southwest': {'lat': 43.69731102010728, 'lng': 7.268053570107276}}}	Galeries Lafayette Nice	ChIJQZpy5qbazRIRCVKSvD4uXkU	4.1	5320	7.269596999999999	43.6986008
Galerie de la marine de Nice, Nice, France	59 Quai des États-Unis, 06300 Nice, France	{'location': {'lat': 43.6951093, 'lng': 7.276165999999999}, 'viewport': {'northeast': {'lat': 43.69640932989272, 'lng': 7.277505679892723}, 'southwest': {'lat': 43.69370967010727, 'lng': 7.274806020107279}}}	Galerie de la Marine	ChIJxR8gFQHQzRIRvT8VYiSiCFg	3.8	45	7.276165999999999	43.6951093
Château Grimaldi à Cagnes sur Mer, Cagnes sur Mer, France	6 Place du Château, 06800 Cagnes-sur-Mer, France	{'location': {'lat': 43.6672663, 'lng': 7.145922499999999}, 'viewport': {'northeast': {'lat': 43.66860302989272, 'lng': 7.147143579892721}, 'southwest': {'lat': 43.66590337010728, 'lng': 7.144443920107277}}}	Le Grimaldi	ChIJB2umRqPTzRIRrEHrXYmgp4I	4.4	888	7.145922499999999	43.6672663
Galerie Lympia à Nice, Nice, France	2 Quai Entrecasteaux, 06300 Nice, France	{'location': {'lat': 43.6947248, 'lng': 7.286194}, 'viewport': {'northeast': {'lat': 43.69605012989273, 'lng': 7.287363729892723}, 'southwest': {'lat': 43.69335047010728, 'lng': 7.284664070107279}}}	Galerie Lympia [Ancien Bagne]	ChIJfcsyg7_azRIRzMIAHoJMKpU	4.4	264	7.286194	43.6947248
Galerie Ponchettes de Nice, Nice, France	3 Place Charles Félix, 06300 Nice, France	{'location': {'lat': 43.6955665, 'lng': 7.2766594}, 'viewport': {'northeast': {'lat': 43.69672497989272, 'lng': 7.277905079892721}, 'southwest': {'lat': 43.69402532010728, 'lng': 7.275205420107277}}}	Les Ponchettes	ChIJYQkg1rzazRIRUA2erAlNpEY	2.8	367	7.2766594	43.6955665
Galerie Ponchettes de Nice, Nice, France	77 Quai des États-Unis, 06300 Nice, France	{'location': {'lat': 43.695325, 'lng': 7.273820799999999}, 'viewport': {'northeast': {'lat': 43.69659862989272, 'lng': 7.27517247989272}, 'southwest': {'lat': 43.69389897010727, 'lng': 7.272472820107276}}}	Gallerie Ponchettes	ChIJ1ywBsKPazRIRl2nMRAALHjI	3.9	107	7.273820799999999	43.695325
Musée Château de Villeneuve Ex Fondation Emile Hugues  de Vence, Vence, France	2 Place du Frêne, 06140 Vence, France	{'location': {'lat': 43.722863, 'lng': 7.1124731}, 'viewport': {'northeast': {'lat': 43.72421832989271, 'lng': 7.113744579892722}, 'southwest': {'lat': 43.72151867010727, 'lng': 7.111044920107278}}}	Château de Villeneuve - Fondation Emile Hugues	ChIJb4tVjl_NzRIRhN9NU2fBAzw	4.6	22	7.1124731	43.722863
Espace de l'art concret de Mouans-Sartoux, Mouans Sartoux, France	Château de Mouans, 06370 Mouans-Sartoux, France	{'location': {'lat': 43.6206791, 'lng': 6.9690913}, 'viewport': {'northeast': {'lat': 43.62182972989272, 'lng': 6.970620529892721}, 'southwest': {'lat': 43.61913007010727, 'lng': 6.967920870107277}}}	Espace de l'Art Concret	ChIJgxr0yQYpzBIRv0ER4q44EbU	4.1	72	6.9690913	43.6206791
Fondation Ephrussi de Rothschild de Saint Jean Cap Ferrat, Saint Jean Cap Ferrat, France	1 Avenue Ephrussi de Rothschild, 06230 Saint-Jean-Cap-Ferrat, France	{'location': {'lat': 43.6966527, 'lng': 7.328465599999999}, 'viewport': {'northeast': {'lat': 43.69810362989273, 'lng': 7.329796779892721}, 'southwest': {'lat': 43.69540397010729, 'lng': 7.327097120107277}}}	Villa Ephrussi de Rothschild	ChIJjS8oYTjbzRIRTzKyZ7Dkw7E	4.7	4438	7.328465599999999	43.6966527
Musée Collection Roux de Villefranche sur Mer, Villefranche sur Mer, France	06230 Villefranche-sur-Mer, France	{'location': {'lat': 43.7011296, 'lng': 7.310882200000001}, 'viewport': {'northeast': {'lat': 43.70247942989273, 'lng': 7.312232029892724}, 'southwest': {'lat': 43.69977977010728, 'lng': 7.30953237010728}}}	Collection Roux	ChIJ0XdGYyjbzRIRHy5jNqvqCC0	0	0	7.310882200000001	43.7011296
Musée Cocteau - collection Séverin Wunderman à Menton, Menton, France	2 Quai de Monleon, 06500 Menton, France	{'location': {'lat': 43.7747322, 'lng': 7.5057185}, 'viewport': {'northeast': {'lat': 43.77621142989272, 'lng': 7.507149129892722}, 'southwest': {'lat': 43.77351177010728, 'lng': 7.504449470107278}}}	Musée Jean Cocteau - Collection Severin Wunderman [actuellement fermé]	ChIJFZN31ePrzRIRmjBPmTjfP-I	4.2	426	7.5057185	43.7747322
Fondation Maeght de Saint Paul de Vence, Saint Paul, France	Fondation Maeght, 623 Chemin des Gardettes, 06570 Saint-Paul-de-Vence, France	{'location': {'lat': 43.7007369, 'lng': 7.1148189}, 'viewport': {'northeast': {'lat': 43.70238597989272, 'lng': 7.116215579892721}, 'southwest': {'lat': 43.69968632010728, 'lng': 7.113515920107277}}}	Fondation Maeght	ChIJt2sJxOvSzRIRUwnVhsrtGNc	4.6	965	7.1148189	43.7007369
Musée d'art classique de Mougins, Mougins, France	32 Rue du Commandeur, 06250 Mougins, France	{'location': {'lat': 43.6011079, 'lng': 6.9957972}, 'viewport': {'northeast': {'lat': 43.60244377989272, 'lng': 6.997111529892721}, 'southwest': {'lat': 43.59974412010727, 'lng': 6.994411870107277}}}	Musée d'Art Classique de Mougins	ChIJ9S42-ZEpzBIRF2GIeJqSunA	4.7	258	6.9957972	43.6011079
Hippodrome de la Côte d'Azur à Cagnes sur Mer, Cagnes sur Mer, France	2 Boulevard J F Kennedy, 06800 Cagnes-sur-Mer, France	{'location': {'lat': 43.652705, 'lng': 7.1516395}, 'viewport': {'northeast': {'lat': 43.65405282989273, 'lng': 7.152964379892722}, 'southwest': {'lat': 43.65135317010728, 'lng': 7.150264720107278}}}	Pavillon de l'Hippodrome de la Côte d'Azur	ChIJPXn8Bo7TzRIRQhyiaEqctI0	4.2	2465	7.1516395	43.652705
Musée archéologique de Nice, Nice, France	160 Avenue des Arènes de Cimiez, 06000 Nice, France	{'location': {'lat': 43.7192878, 'lng': 7.2751191}, 'viewport': {'northeast': {'lat': 43.72064442989272, 'lng': 7.276449379892722}, 'southwest': {'lat': 43.71794477010728, 'lng': 7.273749720107278}}}	Musée d'Archéologie de Nice / Cimiez	ChIJs1YSxFHFzRIRv7otGUG4rso	4.1	323	7.2751191	43.7192878
Musée archéologie océanographie d'Antibes, Antibes, France	Bastion Saint-André, 06600 Antibes, France	{'location': {'lat': 43.5774737, 'lng': 7.1260853}, 'viewport': {'northeast': {'lat': 43.57882352989272, 'lng': 7.127435129892721}, 'southwest': {'lat': 43.57612387010727, 'lng': 7.124735470107277}}}	Musée d'Archéologie	ChIJQz24L_Z_zhIRXBSVavaqNj0	4.1	383	7.1260853	43.5774737
Maison du parc national du Mercantour à Tende, Tende, France	103 Avenue du 16 Septembre 1947, 06430 Tende, France	{'location': {'lat': 44.0891205, 'lng': 7.5933928}, 'viewport': {'northeast': {'lat': 44.09045832989272, 'lng': 7.594651379892722}, 'southwest': {'lat': 44.08775867010728, 'lng': 7.591951720107279}}}	Office de tourisme de Tende	ChIJ_yrngMCczRIRfW9MOnYIroo	4.3	27	7.5933928	44.0891205
Musée d'art naïf Jakovsky de Nice, Nice, France	06200 Nice, France	{'location': {'lat': 43.68691949999999, 'lng': 7.232166100000001}, 'viewport': {'northeast': {'lat': 43.68826932989271, 'lng': 7.233515929892721}, 'southwest': {'lat': 43.68556967010727, 'lng': 7.230816270107277}}}	Musée d'Art Naïf Anatole Jakovsky	ChIJS7KH-U_QzRIRZNGrbqySaR8	4.1	207	7.232166100000001	43.68691949999999
Galerie La Malmaison de Cannes, Cannes, France	111 Rue d'Antibes, 06400 Cannes, France	{'location': {'lat': 43.5522094, 'lng': 7.026451199999999}, 'viewport': {'northeast': {'lat': 43.55349652989272, 'lng': 7.027774229892721}, 'southwest': {'lat': 43.55079687010728, 'lng': 7.025074570107277}}}	Galerie Vieceli de Cannes	ChIJTRK9yJWBzhIRidc0_Y5jjog	4.4	16	7.026451199999999	43.5522094
Musée Bonnard au Cannet, Le Cannet, France	16 Boulevard Sadi Carnot, 06110 Le Cannet, France	{'location': {'lat': 43.57650599999999, 'lng': 7.0199196}, 'viewport': {'northeast': {'lat': 43.57770802989273, 'lng': 7.021218029892722}, 'southwest': {'lat': 43.57500837010728, 'lng': 7.018518370107278}}}	Musée Bonnard	ChIJZyEPOwgqzBIRwPOpk5n5BYw	4.2	437	7.0199196	43.57650599999999
Musée d'art et d'histoire de Provence de Grasse, Grasse, France	2 Rue Mirabeau, 06130 Grasse, France	{'location': {'lat': 43.6575684, 'lng': 6.9225105}, 'viewport': {'northeast': {'lat': 43.65897772989272, 'lng': 6.923946779892721}, 'southwest': {'lat': 43.65627807010728, 'lng': 6.921247120107277}}}	Musée d'Art et d'Histoire de Provence - GRASSE	ChIJT9XXy6oozBIRsCE0S7GVNNI	4.1	62	6.9225105	43.6575684
Musée de la mer sur l'Ile Sainte-Marguerite, Cannes, France	Ile Sainte Marguerite, 1 Place Bernard Cornut-Gentille, 06400 Cannes, France	{'location': {'lat': 43.5239656, 'lng': 7.0454282}, 'viewport': {'northeast': {'lat': 43.52531542989272, 'lng': 7.046778029892722}, 'southwest': {'lat': 43.52261577010728, 'lng': 7.044078370107278}}}	Musée de la Mer	ChIJtW4QeByBzhIRLNXanmnM4LE	4	332	7.0454282	43.5239656
Musée d'art moderne et d’art contemporain de Nice, Nice, France	Place Yves Klein, 06000 Nice, France	{'location': {'lat': 43.7014415, 'lng': 7.278520899999998}, 'viewport': {'northeast': {'lat': 43.70277342989272, 'lng': 7.279858479892722}, 'southwest': {'lat': 43.70007377010728, 'lng': 7.277158820107278}}}	Musée d'Art Moderne et d'Art Contemporain	ChIJn_uIYI_RzRIRhMlmR16MvJI	4.1	2765	7.278520899999998	43.7014415
Musée de la Castre à Cannes, Cannes, France	6 Rue de la Castre, 06400 Cannes, France	{'location': {'lat': 43.5498716, 'lng': 7.010407400000001}, 'viewport': {'northeast': {'lat': 43.55123942989272, 'lng': 7.011483829892722}, 'southwest': {'lat': 43.54853977010728, 'lng': 7.008784170107278}}}	Musée de la Castre	ChIJtW4QeByBzhIRNEnfLWL4lWg	4.4	561	7.010407400000001	43.5498716
Musée de la photographie de Mougins, Mougins, France	67 Rue de l'Église, 06250 Mougins, France	{'location': {'lat': 43.6004511, 'lng': 6.995478899999999}, 'viewport': {'northeast': {'lat': 43.60177197989272, 'lng': 6.996811579892722}, 'southwest': {'lat': 43.59907232010728, 'lng': 6.994111920107278}}}	Musée de la Photographie de Mougins	ChIJbZIUGpIpzBIRmnFc-y6ll4I	4.4	10	6.995478899999999	43.6004511
Musée Soulages à Rodez, Rodez, France	Jardin du Foirail, Avenue Victor Hugo, 12000 Rodez, France	{'location': {'lat': 44.3522136, 'lng': 2.5677007}, 'viewport': {'northeast': {'lat': 44.35312372989272, 'lng': 2.569002479892722}, 'southwest': {'lat': 44.35042407010728, 'lng': 2.566302820107278}}}	Musée Soulages	ChIJo9BLwpd9shIRdt65pwY373I	4.4	2305	2.5677007	44.3522136
Jardin des bêtes de Montrozier, Montrozier, France	340 Route des Barthes, 12630 Montrozier, France	{'location': {'lat': 44.3935913, 'lng': 2.6903433}, 'viewport': {'northeast': {'lat': 44.39498587989272, 'lng': 2.691730329892723}, 'southwest': {'lat': 44.39228622010728, 'lng': 2.689030670107278}}}	Le Jardin des Bêtes	ChIJEYG685qgrRIRtYG9ZXvms1U	4.4	1076	2.6903433	44.3935913
Centre d'information La Capelière d'Arles, Arles, France	Mas de la Capelière - C134, Route de Fielouse, 13200 Arles, France	{'location': {'lat': 43.5347973, 'lng': 4.6431109}, 'viewport': {'northeast': {'lat': 43.53614712989273, 'lng': 4.644460729892723}, 'southwest': {'lat': 43.53344747010728, 'lng': 4.641761070107279}}}	La Capelière - Centre d'information de la Réserve Naturelle Nationale de Camargue	ChIJN8SGOAluthIRTB3FYUENfRU	4.2	107	4.6431109	43.5347973
Musée du couteau de Laguiole, Laguiole, France	Zone Artisanale, route d’Aubrac, La Poujade, 12210 Laguiole, France	{'location': {'lat': 44.6840832, 'lng': 2.8564852}, 'viewport': {'northeast': {'lat': 44.68548617989272, 'lng': 2.857842379892722}, 'southwest': {'lat': 44.68278652010728, 'lng': 2.855142720107277}}}	Musée du Couteau de Laguiole	ChIJg7FlrpLBshIRmz5a9C0nE-A	4.5	252	2.8564852	44.6840832
Parc Flyzone à Lézignan, Lézignan Corbières, France	Aerodrome de Lézignan-Corbières, Plaine de Conilhac, 11200 Lézignan-Corbières, France	{'location': {'lat': 43.1732284, 'lng': 2.7388735}, 'viewport': {'northeast': {'lat': 43.17457432989271, 'lng': 2.740224229892722}, 'southwest': {'lat': 43.17187467010727, 'lng': 2.737524570107278}}}	Skydive-FlyZone	ChIJga7rgQLLsRIR7-4jIJPoUBE	4.7	106	2.7388735	43.1732284
Maison de la Photo  - Jean-Marie Périer à Villeneuve, Villeneuve, France	Place des Conques, 12260 Villeneuve, France	{'location': {'lat': 44.43754060000001, 'lng': 2.0329427}, 'viewport': {'northeast': {'lat': 44.43888322989272, 'lng': 2.034297729892722}, 'southwest': {'lat': 44.43618357010727, 'lng': 2.031598070107278}}}	Maison de la Photo Jean-Marie Périer	ChIJY_EMrxgJrRIR1gHUKUPkDs8	4.5	191	2.0329427	44.43754060000001
Fondation Vincent Van Gogh d'Arles, Arles, France	35 Rue du Dr Fanton, 13200 Arles, France	{'location': {'lat': 43.678133, 'lng': 4.625635}, 'viewport': {'northeast': {'lat': 43.67952582989273, 'lng': 4.626988229892722}, 'southwest': {'lat': 43.67682617010728, 'lng': 4.624288570107278}}}	Fondation Vincent van Gogh Arles	ChIJvTwvu2x2thIRetXE7rb8yjU	4	1300	4.625635	43.678133
Fond Régional d'Art Contemporain à Marseille, Marseille, France	20 Boulevard de Dunkerque, 13002 Marseille, France	{'location': {'lat': 43.3057267, 'lng': 5.3675321}, 'viewport': {'northeast': {'lat': 43.30708682989273, 'lng': 5.368817179892722}, 'southwest': {'lat': 43.30438717010728, 'lng': 5.366117520107278}}}	Fonds Regional d'Art Contemporain	ChIJ52zjilUiWkARizJ-Jh3GGNM	4.2	123	5.3675321	43.3057267
Fondation Saint John Perse d'Aix en Provence , Aix en Provence, France	8 Rue des Allumettes, 13090 Aix-en-Provence, France	{'location': {'lat': 43.5253465, 'lng': 5.4399183}, 'viewport': {'northeast': {'lat': 43.52660302989272, 'lng': 5.441475879892722}, 'southwest': {'lat': 43.52390337010728, 'lng': 5.438776220107278}}}	Fondation Saint John Perse	ChIJGwS76Z6NyRIRCUAJrr2uxyc	0	0	5.4399183	43.5253465
Parc animalier de Pradinas, Pradinas, France	La Riale, 12240 Pradinas, France	{'location': {'lat': 44.2589512, 'lng': 2.2608507}, 'viewport': {'northeast': {'lat': 44.26033992989272, 'lng': 2.262181679892722}, 'southwest': {'lat': 44.25764027010728, 'lng': 2.259482020107277}}}	parc animalier de pradinas	ChIJncIM1FWarRIRwIbJ5hqDDF0	4.2	521	2.2608507	44.2589512
Salle du Trésor de Narbonne, Narbonne, France	10 Rue Etienne Billières, 11100 Narbonne, France	{'location': {'lat': 43.18325, 'lng': 3.010067}, 'viewport': {'northeast': {'lat': 43.18464402989272, 'lng': 3.011451879892722}, 'southwest': {'lat': 43.18194437010727, 'lng': 3.008752220107277}}}	Chasseurs de trésors	ChIJ-9uJfXqssRIRfP7WcKweGWU	4.7	10	3.010067	43.18325
Terra Vinéa à Portel des Corbières, Portel des Corbières, France	Chemin des Plâtrières, 11490 Portel-des-Corbières, France	{'location': {'lat': 43.0516777, 'lng': 2.9274461}, 'viewport': {'northeast': {'lat': 43.05294727989272, 'lng': 2.928773079892723}, 'southwest': {'lat': 43.05024762010728, 'lng': 2.926073420107278}}}	Terra Vinea	ChIJQUKpPgVOsBIR6LFryYeff-g	4.4	518	2.9274461	43.0516777
Musée Fenaille de Rodez , Rodez, France	14 Place Eugène Raynaldy, 12000 Rodez, France	{'location': {'lat': 44.34915600000001, 'lng': 2.576579}, 'viewport': {'northeast': {'lat': 44.35055817989272, 'lng': 2.577930729892722}, 'southwest': {'lat': 44.34785852010728, 'lng': 2.575231070107277}}}	Musée Fenaille	ChIJcVVzqaF9shIRnS2H9s5R-o4	4.4	451	2.576579	44.34915600000001
Maison de l'Aubrac à Saint Chély d'Aubrac, Saint Chély d'Aubrac, France	1, Aubrac, 12470, France	{'location': {'lat': 44.6213062, 'lng': 2.9875135}, 'viewport': {'northeast': {'lat': 44.62265627989272, 'lng': 2.988866079892722}, 'southwest': {'lat': 44.61995662010727, 'lng': 2.986166420107277}}}	Maison de l'Aubrac	ChIJEYquMePmshIRuqvy3tyH68Q	4.4	241	2.9875135	44.6213062
Maison de l'artisanat et des métiers d'art de Marseille, Marseille, France	21 Cours Honoré d'Estienne d'Orves, 13001 Marseille, France	{'location': {'lat': 43.2927803, 'lng': 5.373752199999999}, 'viewport': {'northeast': {'lat': 43.29407822989272, 'lng': 5.375129579892721}, 'southwest': {'lat': 43.29137857010728, 'lng': 5.372429920107277}}}	Maison de l'Artisanat et des Métiers d'Art	ChIJGW00fbjAyRIRDaMW7jACTnY	4.2	151	5.373752199999999	43.2927803
Fondation Vasarely d'Aix en Provence, Aix en Provence, France	1 Avenue Marcel Pagnol, 13090 Aix-en-Provence, France	{'location': {'lat': 43.5212894, 'lng': 5.42498}, 'viewport': {'northeast': {'lat': 43.52283312989272, 'lng': 5.425704129892722}, 'southwest': {'lat': 43.52013347010728, 'lng': 5.423004470107278}}}	Fondation Vasarely	ChIJN9tgM22NyRIRhqdRDQqa9-I	4.2	1293	5.42498	43.5212894
Reptilarium du Larzac à Sainte Eulalie de Cernon, Sainte Eulalie de Cernon, France	Chemin de Millau, 12230 Sainte-Eulalie-de-Cernon, France	{'location': {'lat': 43.9836111, 'lng': 3.1377778}, 'viewport': {'northeast': {'lat': 43.98495472989271, 'lng': 3.139087979892722}, 'southwest': {'lat': 43.98225507010727, 'lng': 3.136388320107277}}}	Le Reptilarium du Larzac	ChIJKYX3orPLsxIRqdiTAn8rZwY	4.4	478	3.1377778	43.9836111
Atelier de Cézanne à Aix en Provence, Aix en Provence, France	9 Avenue Paul Cézanne, 13100 Aix-en-Provence, France	{'location': {'lat': 43.538328, 'lng': 5.446381}, 'viewport': {'northeast': {'lat': 43.53967777989271, 'lng': 5.447730379892721}, 'southwest': {'lat': 43.53697812010727, 'lng': 5.445030720107277}}}	Atelier de Cezanne	ChIJbWuu1a-NyRIR5PiAGLX0xf4	4	1397	5.446381	43.538328
Musée du Rouergue, Musée de la mine à Aubin, Aubin, France	26 Allée du Musée, 12110 Aubin, France	{'location': {'lat': 44.5266641, 'lng': 2.2463863}, 'viewport': {'northeast': {'lat': 44.52806677989272, 'lng': 2.247742729892722}, 'southwest': {'lat': 44.52536712010727, 'lng': 2.245043070107277}}}	Musée de la Mine	ChIJoxZrDN9xrRIRfWxC4ostVAc	4.4	132	2.2463863	44.5266641
Ecomusée de la forêt méditerranéenne de Gardanne, Gardanne, France	RD 7, 20 Chemin de Roman, 13120 Gardanne, France	{'location': {'lat': 43.4710532, 'lng': 5.4514363}, 'viewport': {'northeast': {'lat': 43.47245027989273, 'lng': 5.452702229892723}, 'southwest': {'lat': 43.46975062010728, 'lng': 5.450002570107279}}}	Ecomusée de la Forêt Méditerranéenne	ChIJzWbtCFOSyRIRrB3c9OG82G0	4.3	186	5.4514363	43.4710532
Musée de Millau, Millau, France	Place Maréchal Foch, 12100 Millau, France	{'location': {'lat': 44.0976472, 'lng': 3.0809616}, 'viewport': {'northeast': {'lat': 44.09900022989272, 'lng': 3.082273079892722}, 'southwest': {'lat': 44.09630057010727, 'lng': 3.079573420107278}}}	Musée de Millau et des Grands Causses	ChIJMadF2iNLshIRUYwY2xPFq4s	4.3	193	3.0809616	44.0976472
Micropolis cité des insectes à Saint Léons, Saint Léons, France	Le Bourg, 12780 Saint-Léons, France	{'location': {'lat': 44.215092, 'lng': 2.988794}, 'viewport': {'northeast': {'lat': 44.21644182989272, 'lng': 2.990143829892723}, 'southwest': {'lat': 44.21374217010727, 'lng': 2.987444170107278}}}	Micropolis Cité des Insectes	ChIJZdYHYdPrrhIRsKNSNiBLXsw	4.3	1527	2.988794	44.215092
Caumont Centre d'Art, Aix en Provence, France	3 Rue Joseph Cabassol, 13100 Aix-en-Provence, France	{'location': {'lat': 43.5260019, 'lng': 5.4491732}, 'viewport': {'northeast': {'lat': 43.52733247989272, 'lng': 5.450321179892722}, 'southwest': {'lat': 43.52463282010728, 'lng': 5.447621520107278}}}	Hôtel de Caumont	ChIJzcfoypeNyRIRChMSdOJ8E9M	4.6	3808	5.4491732	43.5260019
Galerie d'art du Conseil Général à Aix en Provence, Aix en Provence, France	20 Rue de la Glacière, 13100 Aix-en-Provence, France	{'location': {'lat': 43.5284514, 'lng': 5.448083599999999}, 'viewport': {'northeast': {'lat': 43.53006282989273, 'lng': 5.449688379892722}, 'southwest': {'lat': 43.52736317010729, 'lng': 5.446988720107278}}}	Galerie d'art Carré d'artistes Aix-en-Provence	ChIJO9pOa72NyRIR--iC1u4LKB4	4.8	13	5.448083599999999	43.5284514
Site templier de la Cavalerie, La Cavalerie, France	Rue de la ville, 12230 La Cavalerie, France	{'location': {'lat': 44.00848939999999, 'lng': 3.157786}, 'viewport': {'northeast': {'lat': 44.00981847989272, 'lng': 3.159251029892722}, 'southwest': {'lat': 44.00711882010728, 'lng': 3.156551370107278}}}	Point Accueil des remparts de La Cavalerie	ChIJ8Rr0cnrLsxIRjO3FEmzNQVM	4.3	15	3.157786	44.00848939999999
Le petit monde de Pagnol à Aubagne, Aubagne, France	4 Cour de Clastres, 13400 Aubagne, France	{'location': {'lat': 43.293023, 'lng': 5.5709952}, 'viewport': {'northeast': {'lat': 43.29441867989273, 'lng': 5.572113429892721}, 'southwest': {'lat': 43.29171902010729, 'lng': 5.569413770107277}}}	Le Petit monde de Marcel Pagnol	ChIJ1VKpCDejyRIR0EEyFKmsMNM	4.4	269	5.5709952	43.293023
Musée Denys Puech de Rodez, Rodez, France	Place Clemenceau, 12000 Rodez, France	{'location': {'lat': 44.3488889, 'lng': 2.5783333}, 'viewport': {'northeast': {'lat': 44.35036502989272, 'lng': 2.579706579892722}, 'southwest': {'lat': 44.34766537010728, 'lng': 2.577006920107277}}}	Musée Denys-Puech	ChIJj0haYKB9shIRNl-p0zEP30E	3.9	109	2.5783333	44.3488889
Maison de la Sainte Victoire de Saint Antonin sur Bayon, Saint Antonin sur Bayon, France	D17, 13100 Saint-Antonin-sur-Bayon, France	{'location': {'lat': 43.5191688, 'lng': 5.5839929}, 'viewport': {'northeast': {'lat': 43.52070552989272, 'lng': 5.585144079892722}, 'southwest': {'lat': 43.51800587010728, 'lng': 5.582444420107278}}}	Restaurant Maison Sainte-Victoire	ChIJ14DqUv2FyRIRfvxUH7X3Wgs	4.8	51	5.5839929	43.5191688
Maison de Nostradamus à Salon de Provence, Salon de Provence, France	Rue Nostradamus, 13300 Salon-de-Provence, France	{'location': {'lat': 43.6408819, 'lng': 5.0976284}, 'viewport': {'northeast': {'lat': 43.64240172989273, 'lng': 5.099257379892721}, 'southwest': {'lat': 43.63970207010728, 'lng': 5.096557720107278}}}	Maison de Nostradamus	ChIJxSWAdln_yRIRsBhVAUg4T2c	3	58	5.0976284	43.6408819
Musée de la préhistoire de Menton, Menton, France	14 - 16 Place du Musée, 06500 Menton, France	{'location': {'lat': 43.7769363, 'lng': 7.503449499999999}, 'viewport': {'northeast': {'lat': 43.77824457989272, 'lng': 7.504824129892721}, 'southwest': {'lat': 43.77554492010728, 'lng': 7.502124470107277}}}	Musée de Préhistoire Régionale « Stanislas Bonfils »	ChIJg3ntm-DrzRIRDWdctw1hE_4	4.2	74	7.503449499999999	43.7769363
Vésubia Mountain Park, Saint Martin Vésubie, France	Allée du Dr Fulconis, 06450 Saint-Martin-Vésubie, France	{'location': {'lat': 44.0715484, 'lng': 7.252962500000001}, 'viewport': {'northeast': {'lat': 44.07300332989272, 'lng': 7.254487729892722}, 'southwest': {'lat': 44.07030367010728, 'lng': 7.251788070107278}}}	Vesúbia Mountain Park	ChIJIafM92ivzRIRjT_6BpyooNw	4.5	496	7.252962500000001	44.0715484
Palais Lascaris de Nice, Nice, France	15 Rue Droite, 06300 Nice, France	{'location': {'lat': 43.6976766, 'lng': 7.277245799999999}, 'viewport': {'northeast': {'lat': 43.69901402989273, 'lng': 7.278658529892721}, 'southwest': {'lat': 43.69631437010728, 'lng': 7.275958870107277}}}	Musée du Palais Lascaris	ChIJUwaVobzazRIR3m1H7yJQQo0	4.3	787	7.277245799999999	43.6976766
Ardèche Lamas à Saint Remèze, Saint Remèze, France	07700 Saint-Remèze, France	{'location': {'lat': 44.39168799999999, 'lng': 4.501187}, 'viewport': {'northeast': {'lat': 44.41815889999999, 'lng': 4.553242099999999}, 'southwest': {'lat': 44.335405, 'lng': 4.4425519}}}	Saint-Remèze	ChIJdV3J4CMEtRIRYAK7I-459Fc	4.501187	44.39168799999999
Musée Terra Amata de Nice, Nice, France	25 Boulevard Carnot, 06000 Nice, France	{'location': {'lat': 43.6978008, 'lng': 7.2892475}, 'viewport': {'northeast': {'lat': 43.69916717989272, 'lng': 7.290507429892721}, 'southwest': {'lat': 43.69646752010728, 'lng': 7.287807770107277}}}	Musée de Préhistoire de Terra Amata	ChIJuyy7PsfazRIRJahfbuqHf4s	3.9	231	7.2892475	43.6978008
Musée Picasso d'Antibes, Antibes, France	place mariejol, 06600 Antibes, France	{'location': {'lat': 43.5808594, 'lng': 7.1281212}, 'viewport': {'northeast': {'lat': 43.58224312989272, 'lng': 7.129723779892723}, 'southwest': {'lat': 43.57954347010728, 'lng': 7.127024120107279}}}	Musée Picasso	ChIJ3cH6_XDVzRIRXWN7WYBWE1s	4.2	3226	7.1281212	43.5808594
Musée national du sport à Nice, Nice, France	Stade Allianz Riviera, Boulevard des Jardiniers, 06200 Nice, France	{'location': {'lat': 43.7062447, 'lng': 7.192220600000001}, 'viewport': {'northeast': {'lat': 43.70778787989273, 'lng': 7.193139029892723}, 'southwest': {'lat': 43.70508822010728, 'lng': 7.19043937010728}}}	Musée National du Sport	ChIJqQL57JLRzRIRYldxi3l6poE	4.2	556	7.192220600000001	43.7062447
Musée national Chagall de Nice, Nice, France	Avenue Dr Ménard, 06000 Nice, France	{'location': {'lat': 43.7091523, 'lng': 7.269355999999999}, 'viewport': {'northeast': {'lat': 43.71056772989272, 'lng': 7.270471329892719}, 'southwest': {'lat': 43.70786807010727, 'lng': 7.267771670107275}}}	Musée National Marc Chagall	ChIJI9rouKvazRIRqmGBA1K3IzQ	4.4	3409	7.269355999999999	43.7091523
Parc Marineland d'Antibes, Antibes, France	306 Avenue Mozart, 06600 Antibes, France	{'location': {'lat': 43.6150034, 'lng': 7.1207411}, 'viewport': {'northeast': {'lat': 43.61635297989272, 'lng': 7.122091029892721}, 'southwest': {'lat': 43.61365332010728, 'lng': 7.119391370107278}}}	Marineland	ChIJgyev0-TUzRIR9Sn0bQrhzRE	3.8	13045	7.1207411	43.6150034
Musée départemental des Merveilles de Tende , Tende, France	Avenue du 16 Septembre 1947, 06430 Tende, France	{'location': {'lat': 44.0902737, 'lng': 7.5925749}, 'viewport': {'northeast': {'lat': 44.09165187989272, 'lng': 7.594053079892721}, 'southwest': {'lat': 44.08895222010727, 'lng': 7.591353420107277}}}	Musée départemental des Merveilles	ChIJ2-SNYsCczRIRsc7MudRkX-k	4.6	420	7.5925749	44.0902737
Musée fondation Henry Clews de Mandelieu, Mandelieu la Napoule, France	453 Avenue Henry Clews, 06210 Mandelieu-la-Napoule, France	{'location': {'lat': 43.5232846, 'lng': 6.9429997}, 'viewport': {'northeast': {'lat': 43.52500702989272, 'lng': 6.943997029892722}, 'southwest': {'lat': 43.52230737010728, 'lng': 6.941297370107278}}}	Le Château de la Napoule	ChIJOxvCcUCDzhIRbYeKW888mQs	4.5	2030	6.9429997	43.5232846
Musée d'histoire locale de Saint Paul de Vence, Saint Paul, France	Montée de la Castre, 06570 Vence, France	{'location': {'lat': 43.6969121, 'lng': 7.1222483}, 'viewport': {'northeast': {'lat': 43.69845777989272, 'lng': 7.123806579892721}, 'southwest': {'lat': 43.69575812010728, 'lng': 7.121106920107277}}}	Musée d'Histoire Locale	ChIJzVUAi-7SzRIRK_ttGMWt510	4.6	14	7.1222483	43.6969121
Musée d'histoire locale de Saint Paul de Vence, Saint Paul, France	Place de la Mairie, 06570 Saint-Paul-de-Vence, France	{'location': {'lat': 43.6969131, 'lng': 7.1223271}, 'viewport': {'northeast': {'lat': 43.69830727989272, 'lng': 7.123233879892721}, 'southwest': {'lat': 43.69560762010727, 'lng': 7.120534220107277}}}	Boutique du Musée	ChIJ1UMr9e7SzRIRiRQFQ9Hq4JA	0.0	0	7.1223271	43.6969131
Musée de la photographie de Nice, Nice, France	1 Place Pierre Gautier, 06300 Nice, France	{'location': {'lat': 43.6959194, 'lng': 7.2746111}, 'viewport': {'northeast': {'lat': 43.69734697989272, 'lng': 7.276167679892722}, 'southwest': {'lat': 43.69464732010728, 'lng': 7.273468020107278}}}	Musée de la Photographie Charles Nègre	ChIJ4WcweKbazRIRkz2JycBURSY	4.1	469	7.2746111	43.6959194
Musée provençal du costume & du bijou de Grasse, Grasse, France	2 Rue Jean Ossola, 06130 Grasse, France	{'location': {'lat': 43.6576485, 'lng': 6.9221606}, 'viewport': {'northeast': {'lat': 43.65902762989272, 'lng': 6.923468429892722}, 'southwest': {'lat': 43.65632797010728, 'lng': 6.920768770107278}}}	Musée Provençal du Costume et du Bijou	ChIJy6XUtaoozBIRII1KjdT92_I	4.2	54	6.9221606	43.6576485
Musée départemental des arts asiatiques de Nice, Nice, France	405 Prom. des Anglais, 06200 Nice, France	{'location': {'lat': 43.6680556, 'lng': 7.215555600000001}, 'viewport': {'northeast': {'lat': 43.66937022989272, 'lng': 7.216868929892722}, 'southwest': {'lat': 43.66667057010728, 'lng': 7.214169270107278}}}	Musée des Arts Asiatiques	ChIJ8yI11QLRzRIRHXn9-Zjb4m8	4.5	586	7.215555600000001	43.6680556
Musée Palais Masséna de Nice, Nice, France	65 Rue de France, 06000 Nice, France	{'location': {'lat': 43.69533, 'lng': 7.258937}, 'viewport': {'northeast': {'lat': 43.69685287989272, 'lng': 7.260245579892721}, 'southwest': {'lat': 43.69415322010728, 'lng': 7.257545920107277}}}	Villa Masséna Musée	ChIJhTGpmQzQzRIReHufaPpzC-I	4.4	1399	7.258937	43.69533
Musée Matisse de Nice, Nice, France	Place Jean-Paul II Pape, 06000 Nice, France	{'location': {'lat': 43.7202028, 'lng': 7.2785406}, 'viewport': {'northeast': {'lat': 43.72155237989271, 'lng': 7.279934029892722}, 'southwest': {'lat': 43.71885272010727, 'lng': 7.277234370107278}}}	parking musée matisse	ChIJ3Xs-oU_FzRIRB3TlJ_1H45U	4	4	7.2785406	43.7202028
Musée Matisse de Nice, Nice, France	06000 Nice, France	{'location': {'lat': 43.7202366, 'lng': 7.2750382}, 'viewport': {'northeast': {'lat': 43.72158017989272, 'lng': 7.27639462989272}, 'southwest': {'lat': 43.71888052010728, 'lng': 7.273694970107276}}}	Arènes / Musée Matisse	ChIJcZh7OVDFzRIR72uNHxOs5Hk	3	2	7.2750382	43.7202366
Musée national Picasso & château Magnelli de Vallauris, Vallauris, France	Place de la Libération, 06220 Vallauris, France	{'location': {'lat': 43.5799817, 'lng': 7.053182499999999}, 'viewport': {'northeast': {'lat': 43.58146412989272, 'lng': 7.054203579892722}, 'southwest': {'lat': 43.57876447010727, 'lng': 7.051503920107278}}}	Musée national Pablo Picasso - La Guerre et la Paix	ChIJf33s5YYqzBIR0JL8xhhoLDM	4.2	355	7.053182499999999	43.5799817
Musée des beaux-arts Jules Chéret de Nice, Nice, France	33 Avenue des Baumettes, 06000 Nice, France	{'location': {'lat': 43.6945205, 'lng': 7.2488375}, 'viewport': {'northeast': {'lat': 43.69602737989273, 'lng': 7.250336379892722}, 'southwest': {'lat': 43.69332772010728, 'lng': 7.247636720107278}}}	Musée des Beaux-Arts de Nice	ChIJ6_XyqmzQzRIRXV6O4YKDuFg	4.2	507	7.2488375	43.6945205
Domaine des oiseaux, Mazères, France	Augé, Route de Calmont, 09270 Mazères, France	{'location': {'lat': 43.2682157, 'lng': 1.6609601}, 'viewport': {'northeast': {'lat': 43.26921362989272, 'lng': 1.662684679892722}, 'southwest': {'lat': 43.26651397010728, 'lng': 1.659985020107278}}}	Le Domaine des Oiseaux	ChIJZ15yb9vkrhIRfRjv2J24XDU	4.6	497	1.6609601	43.2682157
Safari de Peaugres, Peaugres, France	D821, 07340 Peaugres, France	{'location': {'lat': 45.266227, 'lng': 4.7238937}, 'viewport': {'northeast': {'lat': 45.26765982989273, 'lng': 4.725283279892722}, 'southwest': {'lat': 45.26496017010728, 'lng': 4.722583620107278}}}	Safari de Peaugres	ChIJT2Ef0xcU9UcRToBZzInkK3Y	4.5	5480	4.7238937	45.266227
Musée Renoir de Cagnes sur Mer, Cagnes sur Mer, France	Musée Renoir, 19 Chemin des Collettes, 06800 Cagnes-sur-Mer, France	{'location': {'lat': 43.6676571, 'lng': 7.1570242}, 'viewport': {'northeast': {'lat': 43.66900692989272, 'lng': 7.158374029892721}, 'southwest': {'lat': 43.66630727010728, 'lng': 7.155674370107278}}}	Musée Renoir	ChIJZWsxGr_TzRIRg650R3GfJC0	4.4	727	7.1570242	43.6676571
Fortifications de Rocroi, Rocroi, France	08230 Rocroi, France	{'location': {'lat': 49.9268855, 'lng': 4.5197626}, 'viewport': {'northeast': {'lat': 49.92812172989272, 'lng': 4.521176679892722}, 'southwest': {'lat': 49.92542207010728, 'lng': 4.518477020107278}}}	Fortifications de Rocroi	ChIJoVaT6vEB6kcRqd_XRY3LlLI	4.4	23	4.5197626	49.9268855
Fortifications de Rocroi, Rocroi, France	10 Avenue du Général Moreau, 08230 Rocroi, France	{'location': {'lat': 49.9220909, 'lng': 4.520049999999999}, 'viewport': {'northeast': {'lat': 49.92319102989271, 'lng': 4.52082582989272}, 'southwest': {'lat': 49.92049137010727, 'lng': 4.518126170107276}}}	Fortifications de Rocroi	ChIJ_cKnKh8B6kcRVgg2LpYW-yQ	3.0	1	4.520049999999999	49.9220909
Ardennes terre d'aventure aux Mazures, Les Mazures, France	Rue du Lac, 08500 Les Mazures, France	{'location': {'lat': 49.875812, 'lng': 4.597557}, 'viewport': {'northeast': {'lat': 49.87691777989273, 'lng': 4.598855079892722}, 'southwest': {'lat': 49.87421812010728, 'lng': 4.596155420107278}}}	Elfy Park Ardennes	ChIJo4WSDhsH6kcRuy5mwti4DdU	4.3	302	4.597557	49.875812
Ardennes terre d'aventure aux Mazures, Les Mazures, France	Rue du Lac des Vieilles Forges, 08500 Les Mazures, France	{'location': {'lat': 49.8760105, 'lng': 4.5969817}, 'viewport': {'northeast': {'lat': 49.87701702989273, 'lng': 4.598615779892722}, 'southwest': {'lat': 49.87431737010728, 'lng': 4.595916120107277}}}	Ardennes Terre d'Aventures	ChIJs_mte7YH6kcRoeiJfRiFjXg	4.9	23	4.5969817	49.8760105
MuséAl et Site Antique Alba, Alba la Romaine, France	Quartier St Pierre-D107, 07400 Alba-la-Romaine, France	{'location': {'lat': 44.5610059, 'lng': 4.600160199999999}, 'viewport': {'northeast': {'lat': 44.56221642989272, 'lng': 4.601199679892721}, 'southwest': {'lat': 44.55951677010727, 'lng': 4.598500020107277}}}	Site archéologique d'Alba la Romaine	ChIJganY1RwXtRIR0XfJQfYkpfk	4.1	234	4.600160199999999	44.5610059
Château-musée de Sedan, Sedan, France	Cours Clos du Château, 08200 Sedan, France	{'location': {'lat': 49.702163, 'lng': 4.94923}, 'viewport': {'northeast': {'lat': 49.70332847989273, 'lng': 4.951338849999999}, 'southwest': {'lat': 49.70062882010728, 'lng': 4.947620250000001}}}	Château Fort de Sedan	ChIJeXC1Nvpu6kcRYFjjdWSUq_4	4.3	3564	4.94923	49.702163
Palais Carnoles de Menton, Menton, France	3 Avenue de la Madone, 06500 Menton, France	{'location': {'lat': 43.7673389, 'lng': 7.4886696}, 'viewport': {'northeast': {'lat': 43.76858727989272, 'lng': 7.490192729892722}, 'southwest': {'lat': 43.76588762010728, 'lng': 7.487493070107278}}}	Jardin du Palais de Carnolès	ChIJifg1THrpzRIRBM_DNpgOPb4	4.3	358	7.4886696	43.7673389
Musée national Fernand Léger de Biot, Biot, France	255 Chemin du Val de Pôme, 06410 Biot, France	{'location': {'lat': 43.6221174, 'lng': 7.1128998}, 'viewport': {'northeast': {'lat': 43.62346157989272, 'lng': 7.114283979892721}, 'southwest': {'lat': 43.62076192010728, 'lng': 7.111584320107277}}}	Musée national Fernand Léger	ChIJlexfT8LUzRIRiqDZ1lra9dU	4.4	469	7.1128998	43.6221174
Musée Peynet d'Antibes, Antibes, France	Place nationale, 06600 Antibes, France	{'location': {'lat': 43.5810244, 'lng': 7.1259038}, 'viewport': {'northeast': {'lat': 43.58237422989272, 'lng': 7.127253629892721}, 'southwest': {'lat': 43.57967457010728, 'lng': 7.124553970107277}}}	Musée Peynet Et Du Dessin Humoristique	ChIJsZdA1nHVzRIRzy7IsXs3nFs	4.2	142	7.1259038	43.5810244
La forêt des jeux à Saint Remèze, Saint Remèze, France	Route de Bidon, 07700 Saint-Remèze, France	{'location': {'lat': 44.37038159999999, 'lng': 4.513424}, 'viewport': {'northeast': {'lat': 44.37176722989272, 'lng': 4.514744979892722}, 'southwest': {'lat': 44.36906757010728, 'lng': 4.512045320107278}}}	La Forêt d’Émile Zarbre	ChIJrf9sGfAFtRIRhp73j9mIiQU	4.3	264	4.513424	44.37038159999999
Capitainerie du port de Dienville, Dienville, France	Base Nautique, Port Dienville, 10500 Dienville, France	{'location': {'lat': 48.3472119, 'lng': 4.5252742}, 'viewport': {'northeast': {'lat': 48.34842187989272, 'lng': 4.526498729892721}, 'southwest': {'lat': 48.34572222010728, 'lng': 4.523799070107277}}}	Capitainerie Dienville	ChIJ_4LdRa0V7EcRs1TEs3LnD8Y	5	4	4.5252742	48.3472119
Normandie Luge, viaduc de la Souleuvre, Ferrière Harang, France	Viaduc de la Souleuvre, 14350 Carville, France	{'location': {'lat': 48.9487298, 'lng': -0.8623474}, 'viewport': {'northeast': {'lat': 48.95008017989272, 'lng': -0.8609657201072777}, 'southwest': {'lat': 48.94738052010727, 'lng': -0.8636653798927221}}}	Normandie Luge	ChIJD79Bp1fPC0gRy0WuQMC4pyQ	4.5	255	-0.8623474	48.9487298
Musée du débarquement d'Arromanches, Arromanches les Bains, France	Place du 6 Juin, 14117 Arromanches-les-Bains, France	{'location': {'lat': 49.3401858, 'lng': -0.6202649}, 'viewport': {'northeast': {'lat': 49.34152077989272, 'lng': -0.6188156701072779}, 'southwest': {'lat': 49.33882112010728, 'lng': -0.6215153298927223}}}	Musée du Débarquement	ChIJ4ZZv7txVCkgRW_p2vFRfqUs	4.5	7549	-0.6202649	49.3401858
Musée de la batterie de Merville, Merville Franceville Plage, France	Place du 9ème Bataillon, 14810 Merville-Franceville-Plage, France	{'location': {'lat': 49.2696141, 'lng': -0.1973081}, 'viewport': {'northeast': {'lat': 49.27088537989273, 'lng': -0.1958177201072778}, 'southwest': {'lat': 49.26818572010728, 'lng': -0.1985173798927222}}}	Musée et site de la Batterie de Merville	ChIJ69OMh5ZkCkgRnJqZppQgB9g	4.5	2516	-0.1973081	49.2696141
Maison du Père Noël, Sept Saulx, France	6 Rue de la Libération, 51400 Sept-Saulx, France	{'location': {'lat': 49.1499682, 'lng': 4.2439141}, 'viewport': {'northeast': {'lat': 49.15131802989271, 'lng': 4.245263929892721}, 'southwest': {'lat': 49.14861837010727, 'lng': 4.242564270107278}}}	Grinyland	ChIJ2161WWJ76UcR5vNLDNh9hRs	4.2	1018	4.2439141	49.1499682
Musée d'art et d'histoire de Granville, Granville, France	2 Rue Lecarpentier, 50400 Granville, France	{'location': {'lat': 48.8371417, 'lng': -1.6026231}, 'viewport': {'northeast': {'lat': 48.83853092989273, 'lng': -1.601400720107278}, 'southwest': {'lat': 48.83583127010728, 'lng': -1.604100379892722}}}	Musée d'art et d'histoire de Granville	ChIJHxRSHPoaDEgRJvnrJa05m_c	4.3	13	-1.6026231	48.8371417
Musée d'art et d'histoire de Granville, Granville, France	La Haute-Ville Place de l'Isthme, 50400 Granville, France	{'location': {'lat': 48.838468, 'lng': -1.600608}, 'viewport': {'northeast': {'lat': 48.83981782989272, 'lng': -1.599258170107278}, 'southwest': {'lat': 48.83711817010728, 'lng': -1.601957829892722}}}	Musée d'art moderne Richard Anacréon	ChIJG8f2nvAaDEgRIt4-UES9ODU	4.2	161	-1.600608	48.838468
Centre d'interprétation de la Marne 14-18, Suippes, France	4 Rlle Bayard BP 31, 51600 Suippes, France	{'location': {'lat': 49.13186890000001, 'lng': 4.5317115}, 'viewport': {'northeast': {'lat': 49.13323552989272, 'lng': 4.533015229892722}, 'southwest': {'lat': 49.13053587010728, 'lng': 4.530315570107278}}}	Centre d'Interprétation Marne 14-18	ChIJw8DyJeHP60cRXeFlV837fpw	4.3	114	4.5317115	49.13186890000001
Planétarium Ludiver à Tonneville, Tonneville, France	LA HAGUE, 1700 Rue de la Libération, 50460, France	{'location': {'lat': 49.6307772, 'lng': -1.7276718}, 'viewport': {'northeast': {'lat': 49.63212002989272, 'lng': -1.726237270107278}, 'southwest': {'lat': 49.62942037010728, 'lng': -1.728936929892722}}}	Planétarium Ludiver	ChIJQ7D0xk6UDEgRDSSD2Wn2_M0	4.3	45	-1.7276718	49.6307772
